{ "programs": [
    {
      "id": 0,
      "name": "Tiapko Uaw",
      "location": "Port Hardy",
      "hours": "Morning",
      "Martial Art": "MMA"
    },
    {
      "id": 1,
      "name": "Haahluhle",
      "location": "Comox Valley",
      "hours": "Morning",
      "Martial Art": "Muay Thai"
    },
    {
      "id": 2,
      "name": "Kbadel",
      "location": "Campbell Arena",
      "hours": "Day",
      "Martial Art": "MMA"
    },
    {
      "id": 3,
      "name": "Akyundos",
      "location": "Campbell Arena",
      "hours": "Evening",
      "Martial Art": "MMA"
    },
    {
      "id": 4,
      "name": "Naru",
      "location": "Port Hardy",
      "hours": "Evening",
      "Martial Art": "Muay Thai"
    },
    {
      "id": 5,
      "name": "Fuduzem",
      "location": "Campbell Arena",
      "hours": "Evening",
      "Martial Art": "Boxing"
    },
    {
      "id": 6,
      "name": "Shallay",
      "location": "Comox Valley",
      "hours": "Day",
      "Martial Art": "Boxing"
    },
    {
      "id": 7,
      "name": "Fojugahn",
      "location": "Comox Valley",
      "hours": "Evening",
      "Martial Art": "MMA"
    },
    {
      "id": 8,
      "name": "Kbadel",
      "location": "Comox Valley",
      "hours": "Evening",
      "Martial Art": "Boxing"
    },
    {
      "id": 9,
      "name": "Fuduzem",
      "location": "Campbell Arena",
      "hours": "Evening",
      "Martial Art": "MMA"
    },
    {
      "id": 10,
      "name": "Dobontoe",
      "location": "Port Hardy",
      "hours": "Evening",
      "Martial Art": "MMA"
    },
    {
      "id": 11,
      "name": "Preshoo",
      "location": "Campbell Arena",
      "hours": "Morning",
      "Martial Art": "Boxing"
    },
    {
      "id": 12,
      "name": "Nagria Ouje",
      "location": "Port Hardy",
      "hours": "Evening",
      "Martial Art": "Muay Thai"
    },
    {
      "id": 13,
      "name": "Vose",
      "location": "Comox Valley",
      "hours": "Evening",
      "Martial Art": "Muay Thai"
    },
    {
      "id": 14,
      "name": "Laihlino",
      "location": "Port Hardy",
      "hours": "Evening",
      "Martial Art": "Muay Thai"
    },
    {
      "id": 15,
      "name": "Tiapko Uaw",
      "location": "Port Hardy",
      "hours": "Day",
      "Martial Art": "Boxing"
    },
    {
      "id": 16,
      "name": "Gwanges Thaw",
      "location": "Comox Valley",
      "hours": "Evening",
      "Martial Art": "Muay Thai"
    },
    {
      "id": 17,
      "name": "Chuyer Wo",
      "location": "Campbell Arena",
      "hours": "Evening",
      "Martial Art": "MMA"
    },
    {
      "id": 18,
      "name": "Por-Soshoo",
      "location": "Comox Valley",
      "hours": "Morning",
      "Martial Art": "Boxing"
    },
    {
      "id": 19,
      "name": "Wato-Meocue",
      "location": "Campbell Arena",
      "hours": "Morning",
      "Martial Art": "MMA"
    },
    {
      "id": 20,
      "name": "Gelanchoo",
      "location": "Campbell Arena",
      "hours": "Day",
      "Martial Art": "Muay Thai"
    },
    {
      "id": 21,
      "name": "Cuhwo-Shu",
      "location": "Campbell Arena",
      "hours": "Evening",
      "Martial Art": "Muay Thai"
    },
    {
      "id": 22,
      "name": "Nhullial",
      "location": "Campbell Arena",
      "hours": "Morning",
      "Martial Art": "Muay Thai"
    },
    {
      "id": 23,
      "name": "Haahluhle",
      "location": "Campbell Arena",
      "hours": "Morning",
      "Martial Art": "Boxing"
    },
    {
      "id": 24,
      "name": "Takyein",
      "location": "Port Hardy",
      "hours": "Day",
      "Martial Art": "MMA"
    },
    {
      "id": 25,
      "name": "Por-Soshoo",
      "location": "Comox Valley",
      "hours": "Evening",
      "Martial Art": "Muay Thai"
    },
    {
      "id": 26,
      "name": "Goehnobi",
      "location": "Comox Valley",
      "hours": "Morning",
      "Martial Art": "Boxing"
    },
    {
      "id": 27,
      "name": "Shekecheo",
      "location": "Port Hardy",
      "hours": "Day",
      "Martial Art": "Muay Thai"
    },
    {
      "id": 28,
      "name": "Sabnea",
      "location": "Comox Valley",
      "hours": "Day",
      "Martial Art": "Muay Thai"
    },
    {
      "id": 29,
      "name": "Wambahni",
      "location": "Comox Valley",
      "hours": "Evening",
      "Martial Art": "MMA"
    }
    ]
}